BDGSV,4,1,13,03,,,27,06,55,219,21,09,43,217,24,16,62,220,26*5D
$BDGSV,4,2,13,19,47,046,24,29,05,174,16,35,34,215,28,36,34,137,22*62
$BDGSV,4,3,13,38,77,103,09,39,72,230,27,44,34,283,16,46,30,076,11*6F
$BDGSV,4,4,13,59,,,28*6C
$GNRMC,124728.000,A,3134.28025,N,12015.99495,E,0.00,0.00,300522,,,A*7B
$GNVTG,0.00,T,,M,0.00,N,0.00,K,A*23
$GNZDA,124728.000,30,05,2022,00,00*46
$GPTXT,01,01,01,ANTENNA OK*35
$GNGGA,124729.000,3134.28026,N,12015.99496,E,1,19,0.9,28.9,M,0.0,M,,*4C
$GNGLL,3134.28026,N,12015.99496,E,124729.000,A,A*4B
$GPGSA,A,3,02,05,13,15,18,20,24,29,194,195,,,1.8,0.9,1.6*33
$BDGSA,A,3,06,09,16,19,35,36,38,39,46,,,,1.8,0.9,1.6*24
$GPGSV,3,1,11,02,08,154,25,05,42,083,19,13,42,038,11,15,69,345,19*78
$GPGSV,3,2,11,18,58,303,23,20,17,105,20,23,25,307,20,24,46,177,32*7B
$GPGSV,3,3,11,29,19,225,27,194,17,146,28,195,33,176,38*4F
$BDGSV,4,1,13,03,,,27,06,55,219,21,09,43,217,24,16,62,220,26*5D
$BDGSV,4,2,13,19,47,047,24,29,05,174,16,35,34,215,28,36,34,137,22*63
$BDGSV,4,3,13,38,77,103,09,39,72,230,27,44,34,283,16,46,30,076,11*6F
$BDGSV,4,4,13,59,,,28*6C
$GNRMC,124729.000,A,3134.28026,N,12015.99496,E,0.00,0.00,300522,,,A*7A
$GNVTG,0.00,T,,M,0.00,N,0.00,K,A*23
$GNZDA,124729.000,30,05,2022,00,00*47
$GPTXT,01,01,01,ANTENNA OK*35
000,3134.28028,N,12015.99498,E,1,20,0.8,28.9,M,0.0,M,,*4F
$GNGLL,3134.28028,N,12015.99498,E,124730.000,A,A*43
$GPGSA,A,3,02,05,13,15,18,20,24,29,194,195,,,1.5,0.8,1.3*3A
$BDGSA,A,3,06,09,16,19,35,36,38,39,44,46,,,1.5,0.8,1.3*2D
$GPGSV,3,1,11,02,08,154,25,05,42,083,19,13,42,038,11,15,69,345,17*76
$GPGSV,3,2,11,18,58,303,23,20,17,105,20,23,25,307,21,24,46,177,32*7A
$GPGSV,3,3,11,29,19,225,27,194,17,146,28,195,33,176,37*40
$BDGSV,4,1,13,03,,,27,06,55,219,21,09,43,217,25,16,62,220,26*5C
$BDGSV,4,2,13,19,47,047,24,29,05,174,16,35,34,215,28,36,34,137,22*63
$BDGSV,4,3,13,38,77,103,11,39,72,230,27,44,34,283,16,46,30,076,11*66
$BDG3
$GNZDA,124730.000,30,05,2022,00,00*4F
$GPTXT,01,01,01,ANTENNA OK*35
$GNGGA,124731.000,3134.28029,N,12015.99500,E,1,20,0.8,28.9,M,0.0,M,,*4F
$GNGLL,3134.28029,N,12015.99500,E,124731.000,A,A*43
$GPGSA,A,3,02,05,13,15,18,20,24,29,194,195,,,1.5,0.8,1.3*3A
$BDGSA,A,3,06,09,16,19,35,36,38,39,44,46,,,1.5,0.8,1.3*2D
$GPGSV,3,1,11,02,08,154,25,05,42,083,19,13,42,038,11,15,69,345,17*76
$GPGSV,3,2,11,18,58,303,23,20,17,105,20,23,25,307,21,24,46,177,32*7A
$GPGSV,3,3,11,29,19,225,24,194,17,146,28,195,33,176,37*43
$BDGSV,4,1,13,03,,,27,06,55,219,21,09,43,217,25,16,62,220,26*5C
$BDGSV,4,2,13,19,47,047,23,29,05,174,16,35,34,215,28,36,34,137,23*65
$BDGSV,4,3,13,38,77,103,11,39,72,230,27,44,34,283,16,46,30,076,11*66
$BDGSV,4,4,13,59,,,28*6C
$GNRMC,124731.000,A,3134.28029,N,12015.99500,E,0.00,0.00,300522,,,A*72
$GNVTG,0.00,T,,M,0.00,N,0.00,K,A*23
$GNZDA,124731.000,30,05,2022,00,00*4E
$GPTXT,01,01,01,ANTENNA OK*35
$GNGGA,124732.000,3134.28032,N,12015.99500,E,1,20,0.8,28.9,M,0.0,M,,*46
$GNGLL,3134.28032,N,12015.99500,E,124732.000,A,A*4A
$GPGSA,A,3,02,05,13,15,18,20,24,29,194,195,,,1.5,0.8,1.3*3A
$BDGSA,A,3,06,09,16,19,35,36,38,39,44,20,23,25,307,21,24,46,177,32*7A
$GPGSV,3,3,11,29,19,225,24,194,17,146,28,195,33,176,37*43
$BDGSV,4,1,13,03,,,27,06,55,219,21,09,43,217,25,16,62,220,26*5C
$BDGSV,4,2,13,19,47,047,23,29,05,174,16,35,34,215,28,36,34,137,23*65
$BDGSV,4,3,13,38,77,103,11,39,72,230,27,44,34,283,16,46,30,076,11*66
$BDGSV,4,4,13,59,,,28*6C
$GNRMC,124732.000,A,3134.28032,N,12015.99500,E,0.00,0.00,300522,,,A*7B
$GNVTG,0.00,T,,M,0.00,N,0.00,K,A*23
$GNZDA,124732.000,30,05,2022,00,00*4D
$GPTXT,01,01,01,ANTENNA OK*35
$GNGGA,124733.000,3134.28035,N,12015.99502,E,1,20,0.8,28.9,M,0.0,M,,*42
$GNGLL,3134.28035,N,12015.99502,E,124733.000,A,A*4E
$GPGSA,A,3,02,05,13,15,18,20,24,29,194,195,,,1.5,0.8,1.3*3A
$BDGSA,A,3,06,09,16,19,35,36,38,39,44,46,,,1.5,0.8,1.3*2D
$GPGSV,3,1,11,02,08,154,25,05,42,083,19,13,42,038,11,15,69,345,17*76
$GPGSV,3,2,11,18,58,303,23,20,17,105,20,23,25,307,21,24,46,177,32*7A
$GPGSV,3,3,11,29,19,225,24,194,17,146,28,195,33,176,37*43
$BDGSV,4,1,13,03,,,27,06,55,219,22,09,43,217,25,16,62,220,26*5F
$BDGSV,4,2,13,19,47,047,23,29,05,174,16,35,34,215,27,36,34,137,23*6A
$BDGSV,4,3,13,38,77,103,11,39,72,230,26,44,34,283,16,46,30,076,11*67
$BDGSV,4,4,13,59,,,28*6C
$GNRMC,124733.000,A,3134.28035,N,12015.99502,E,0.00,0.00,300522,,,A*7F
$GNVTG,0.00,T,,M,0.00,N,0.00,K,A*23
$GNZDA,124733.000,30,05,2022,00,00*4C
$GPTXT,01,01,01,ANTENNA OK*35
$GNGGA,124734.000,3134.28038,N,12015.99503,E,1,20,0.8,28.9,M,0.0,M,,*49
$GNGLL,3134.28038,N,12015.99503,E,124734.000,A,A*45
$GPGSA,A,3,02,05,13,15,18,20,24,29,194,195,,,1.5,0.8,1.3*3A
$BDGSA,A,3,06,09,16,19,35,36,38,39,44,46,,,1.5,0.8,1.3*2D
$GPGSV,3,1,11,02,08,154,25,05,42,083,15,13,42,038,11,15,69,345,17*7A
$GPGSV,3,2,11,18,58,303,23,20,17,105,19,23,25,307,21,24,46,177,32*70
$GPGSV,3,3,11,29,19,225,24,194,17,146,28,195,33,176,37*43
$BDGSV,4,1,13,03,,,27,06,55,219,22,09,43,217,25,16,62,220,26*5F
$BDGSV,4,2,13,19,47,047,23,29,05,174,16,35,34,215,27,36,34,137,23*6A
$BDGSV,4,3,13,38,77,103,11,39,72,230,26,44,34,283,17,46,30,076,11*66
$BDGSV,4,4,13,59,,,28*6C
$GNRMC,124734.000,A,3134.28038,N,12015.99503,E,0.00,0.00,300522,,,A*74
$GNVTG,0.00,T,,M,0.00,N,0.00,K,A*23
$GNZDA,124734.000,30,05,2022,00,00*4B
$GPTXT,01,01,01,ANTENNA OK*35
$GNGGA,124735.000,3134.28039,N,12015.99501,E,1,20,0.8,28.9,M,0.0,M,,*4B
$GNGLL,3134.28039,N,12015.99501,E,124735.000,A,A*47
$GPGSA,A,3,02,05,13,15,18,20,24,29,194,195,,,1.5,0.8,1.3*3A
$BDGSA,A,3,06,09,16,19,35,36,38,39,44,46,,,1.5,0.8,1.3*2D
$GPGSV,3,1,11,02,08,154,25,05,42,083,15,13,42,038,11,15,69,345,17*7A
$GPGSV,3,2,11,18,58,303,24,20,17,105,19,23,25,307,21,24,46,177,32*77
$GPGSV,3,3,11,29,19,225,24,194,17,146,28,195,33,176,37*43
$BDGSV,4,1,13,03,,,27,06,55,219,22,09,43,217,25,16,62,220,26*5F
$BDGSV,4,2,13,19,47,047,23,29,05,174,16,35,34,215,27,36,34,137,23*6A
$BDGSV,4,3,13,38,77,103,11,39,72,230,26,44,34,283,17,46,30,076,11*66
$BDGSV,4,4,13,59,,,28*6C
$GNRMC,124735.000,A,3134.28039,N,12015.99501,E,0.00,0.0$GNGGA,124736.000,3134.28041,N,12015.99503,E,1,20,0.8,28.9,M,0.0,M,,*45
$GNGLL,3134.28041,N,12015.99503,E,124736.000,A,A*49
$GPGSA02,08,154,23,05,42,083,15,13,42,038,11,15,69,345,17*7C
$GPGSV,3,2,11,18,58,303,24,20,17,105,19,23,25,307,21,24,46,177,32*77
$GPGSV,3,3,11,29,19,225,24,194,17,146,28,195,33,176,37*43
$BDGSV,4,1,13,03,,,27,06,55,219,22,09,43,217,25,16,62,220,25*5C
$BDGSV,4,2,13,19,47,047,23,29,05,174,16,35,34,215,27,36,34,137,21*68
$BDGSV,4,3,13,38,77,103,11,39,72,230,26,44,34,283,17,46,30,076,11*66
$BDGSV,4,4,13,59,,,28*6C
$GNRMC,124736.000,A,3134.28041,N,12015.99503,E,0.00,0.00,300522,,,A*78
$GNVTG,0.00,T,,M,0.00,N,$GNGGA,124737.000,3134.28044,N,12015.99502,E,1,20,0.8,28.8,M,0.0,M,,*41
$GNGLL,3134.28044,N,12015.99502,E,124737.000,A,A*4C
$GPGSA,A,3,02,05,13,15,18,20,24,29,194,195,,,1.5,0.8,1.3*3A
$BDGSA,A,3,06,09,16,19,35,36,38,39,44,46,,,1.5,0.8,1.3*2D
$GPGSV,3,1,11,02,08,154,23,05,42,083,15,13,42,038,11,15,69,345,19*72
$GPGSV,3,2,11,18,58,303,24,20,17,105,19,23,25,307,21,24,46,177,32*77
$GPGSV,3,3,11,29,19,225,24,194,17,146,28,195,33,176,37*43
$BDGSV,4,1,13,03,,,27,06,55,219,22,09,43,217,25,16,62,220,25*5C
$BDGSV,4,2,13,19,47,047,21,29,05,174,16,35,34,215,27,36,34,137,21*6A
$BDGSV,4,3,13,38,77,103,11,39,72,230,26,44,34,282,20,46,30,076,11*63
$BDGSV,4,4,13,59,,,28*6C
$GNRMC,12,00,00*48
$GPTXT,01,01,01,ANTENNA OK*35
$GNGGA,124738.000,3134.28048,N,12015.99504,E,1,20,0.8,28.8,M,0.0,M,,*44
$GNGLL,3134.28048,N,12015.99504,E,124738.000,A,A*49
$GPGSA,A,3,02,05,13,15,18,20,24,29,194,195,,,1.5,0.8,1.3*3A
$BDGSA,A,3,06,09,16,19,35,36,38,39,44,46,,,1.5,0.8,1.3*2D
$GPGSV,3,1,11,02,08,154,23,05,42,083,15,13,42,038,11,15,69,345,19*72
$GPGSV,3,2,11,18,58,303,24,20,17,105,19,23,25,307,21,24,46,177,32*77
$GPGSV,3,3,11,29,19,225,23,194,17,146,28,195,33,176,37*44
$BDGSV,4,1,13,03,,,27,06,55,219,22,09,43,217,25,16,62,220,25*5C
$BDGSV,4,2,13,19,47,047,21,29,05,174,16,35,34,215,27,36,34,137,21*6A
$BDGSV,4,3,13,38,77,103,13,39,72,230,25,44,34,282,20,46,30,076,11*62
$BDGSV,4,4,13,59,,,28*6C
$GNRMC,124738.000,A,3134.28048,N,12015.99504,E,0.00,0.00,300522,,,A*78
$GNVTG,0.00,T,,M,0.00,N,0.00,K,A*23
$GNZDA,124738.000,30,05,2022,00,00*47
$GPTXT,01,01,01,ANTENNA OK*35
$GNGGA,124739.000,3134.28051,N,12015.99504,E,1,19,0.8,28.8,M,0.0,M,,*47
$GNGLL,3134.28051,N,12015.99504,E,124739.000,A,A*40
$GPGSA,A,3,02,13,15,18,20,24,29,194,195,,,,1.5,0.8,1.3*3F
$BDGSA,A,3,06,09,16,19,35,36,38,39,44,46,,,1.5,0.8,1.3*2D
$GPGSV,3,1,11,02,08,154,23,05,42,083,05,13,42,038,11,15,69,346,19*70
$GPGSV,3,2,11,18,58,303,24,20,17,105,19,23,25,307,21,24,46,177,32*77
$GPGSV,3,3,11,29,19,225,23,194,17,146,28,195,33,176,37*44
$BDGSV,4,1,13,03,,,27,06,55,219,22,09,43,217,25,16,62,220,25*5C
$BDGSV,4,2,13,19,47,047,21,29,05,174,16,35,34,215,27,36,34,137,21*6A
$BDGSV,4,3,13,38,77,103,13,39,72,230,25,44,34,282,20,46,30,076,11*62
$BDGSV,4,4,13,59,,,28*6C
$GNRMC,124739.000,A,3134.28051,N,12015.99504,E,0.00,0.00,300522,,,A*71
$GNVTG,0.00,T,,M,0.00,N,0.00,K,A*23
$GNZDA,124739.000,30,05,2022,00,00*46
$GPTXT,01,01,01,ANTENNA OK*35
$GNGGA,124740.000,3134.28053,N,12015.99504,E,1,19,0.8,28.8,M,0.0,M,,*4B
$GNGLL,3134.28053,N,12015.99504,E,124740.000,A,A*4C
$GPGSA,A,3,02,13,15,18,20,24,29,194,195,,,,1.5,0.8,1.3*3F
$BDGSA,A,3,06,09,16,19,35,36,38,39,44,46,,,1.5,0.8,1.3*2D
$GPGSV,3,1,11,02,08,154,23,05,42,083,05,13,42,038,11,15,69,346,19*70
$GPGSV,3,2,11,18,58,303,24,20,17,105,19,23,25,307,21,24,46,177,31*74
$GPGSV,3,3,11,29,19,225,23,194,17,146,28,195,33,176,37*44
$BDGSV,4,1,13,03,,,27,06,55,219,22,09,43,217,25,16,62,220,25*5C
$BDGSV,4,2,13,19,47,047,21,29,,,15,35,34,215,27,36,34,137,21*5E
$BDGSV,4,3,13,38,77,103,13,39,72,230,25,44,34,282,20,46,31,076,12*60
$BDGSV,4,4,13,59,,,28*6C
$GNRMC,124740$GNGGA,124741.000,3134.28055,N,12015.99505,E,1,19,0.8,28.8,M,0.0,M,,*4D
$GNGLL,3134.28055,N,12015.99505,E,124741.000,A,A*4A
$GPGSA,A,3,02,13,15,18,20,24,29,194,195,,,,1.5,0.8,1.3*3F
$BDGSA,A,3,06,09,16,19,35,36,38,39,44,46,,,1.5,0.8,1.3*2D
$GPGSV,3,1,11,02,08,154,23,05,42,083,05,13,42,038,12,15,69,346,19*73
$GPGSV,3,2,11,18,58,303,24,20,17,105,19,23,25,307,21,24,46,177,31*74
$GPGSV,3,3,11,29,19,225,23,194,17,146,28,195,33,176,38*4B
$BDGSV,4,1,13,03,,,27,06,55,219,22,09,43,217,25,16,62,220,25*5C
$BDGSV,4,2,13,19,47,047,21,29,,,15,35,34,215,27,36,34,137,21*5E
$BDGSV,4,3,13,38,77,103,13,39,72,230,25,44,34,282,20,46,31,076,12*60
$BDGSV,4,4,13,59,,,28*6C
$GNRMC,124741.000,A,3134.28055,N,12015.99505,E,0.00,0.00,300522,,,A*7B
$GNVTG,0.00,T,,M,0.00,N,0.00,K,A*23
$GNZDA,124741.000,30,05,2022,00,00*49
$GPTXT,01,01,01,ANTENNA OK*35
$GNGGA,124742.000,3134.28057,N,12015.99505,E,1,19,0.8,28.8,M,0.0,M,,*4C
$GNGLL,3134.28057,N,12015.99505,E,124742.000,A,A*4B
$GPGSA,A,3,02,13,15,18,20,24,29,194,195,,,,1.5,0.8,1.3*3F
$BDGSA,A,3,06,09,16,19,35,36,38,39,44,46,,,1.5,0.8,1.3*2D
$GPGSV,3,1,11,02,08,154,23,05,42,083,05,13,42,038,12,15,69,346,21*78
$GPGSV,3,2,11,18,58,303,23,20,17,105,19,23,25,307,21,24,46,177,31*73
$GPGSV,3,3,11,29,19,225,23,194,17,146,28,195,33,176,38*4B
$BDGSV,4,1,13,03,,,27,06,55,219,23,09,43,217,25,16,62,220,25*5D
$BDGSV,4,2,13,4,4,13,59,,,28*6C
$GNRMC,124742.000,A,3134.28057,N,12015.99505,E,0.00,0.00,300522,,,A*7A
$GNVTG,0.00,T,,M,0.00,N,0.00,K,A*23
$GNZDA,124742.000,30,05,2022,00,00*4A
$GPTXT,01,01,01,ANTENNA OK*35
$GNGGA,124743.000,3134.28059,N,12015.99505,E,1,19,0.8,28.7,M,0.0,M,,*4C
$GNGLL,3134.28059,N,12015.99505,E,124743.000,A,A*44
$GPGSA,A,3,02,13,15,18,20,24,29,194,195,,,,1.5,0.8,1.3*3F
$BDGSA,A,3,06,09,16,19,35,36,38,39,44,46,,,1.5,0.8,1.3*2D
$GPGSV,3,1,11,02,08,154,23,05,42,083,05,13,42,038,12,15,69,346,21*78
$GPGSV,3,2,11,18,58,303,23,20,17,105,19,23,25,307,21,24,46,177,31*73
$GPGSV,3,3,11,29,19,225,23,194,17,146,28,195,33,176,37*44
$BDGSV,4,1,13,03,,,27,06,55,219,23,09,43,217,25,16,62,220,25*5D
$BDGSV,4,2,13,19,47,047,19,29,,,15,35,34,215,27,36,34,137,18*5F
$BDGSV,4,3,13,38,77,103,13,39,72,230,23,44,34,282,20,46,31,076,12*66
$BDGSV,4,4,13,59,,,28*6C
$GNRMC,124743.000,A,3134.28059,N,12015.99505,E,0.00,0.00,300522,,,A*75
$GNVTG,0.00,T,,M,0.00,N,0.00,K,A*23
$GNZDA,124743.000,30,05,2022,00,00*4B
$GPTXT,01,01,01,ANTENNA OK*35
$GNGGA,124744.000,3134.28063,N,12015.99506,E,1,19,0.8,28.7,M,0.0,M,,*41
$GNGLL,3134.28063,N,12015.99506,E,124744.000,A,A*49
$GPGSA,A,3,02,13,15,18,20,24,29,194,195,,,,1.5,0.8,1.3*3F
$BDGSA,A,3,06,09,16,19,35,36,38,39,44,46,,,1.5,0.8,1.3*2D
$GPGSV,3,1,11,02,08,154,23,05,42,083,05,13,42,038,12,15,69,346,21*78
$GPGSV,3,2,11,18,58,303,23,20,17,105,19,23,25,30,16,62,220,25*5D
$BDGSV,4,2,13,19,47,047,19,29,,,15,35,34,215,27,36,34,137,18*5F
$BDGSV,4,3,13,38,77,103,13,39,72,230,23,44,34,282,21,46,31,076,12*67
$BDGSV,4,4,13,59,,,28*6C
$GNRMC,124744.000,A,3134.28063,N,12015.99506,E,0.00,0.00,300522,,,A*78
$GNVTG,0.00,T,,M,0.00,N,0.00,K,A*23
$GNZDA,124744.000,30,05,2022,00,00*4C
$GPTXT,01,01,01,ANTENNA OK*35
$GNGGA,124745.000,3134.28064,N,12015.99507,E,1,19,0.8,28.7,M,0.0,M,,*46
$GNGLL,3134.28064,N,12015.99507,E,124745.000,A,A*4E
$GPGSA,A,3,02,13,15,18,20,24,29,194,195,,,,1.5,0.8,1.3*3F
$BDGSA,A,3,06,09,16,19,35,36,38,39,44,46,,,1.5,0.8,1.3*2D
$GPGSV,3,1,11,02,08,154,23,05,42,083,05,13,42,038,12,15,69,346,21*78
$GPGSV,3,2,11,18,58,303,23,20,17,105,19,23,25,307,21,24,46,177,31*73
$GPGSV,3,3,11,29,19,225,23,194,17,146,29,195,33,176,37*45
$BDGSV,4,1,13,03,,,27,06,55,219,23,09,43,217,25,16,62,220,25*5D
$BDGSV,4,2,13,19,47,047,19,29,,,15,35,34,215,27,36,34,137,18*5F
$BDGSV,4,3,13,38,77,103,13,39,72,230,23,44,34,282,21,46,31,076,12*67
$BDGSV,4,4,13,59,,,28*60,30,05,2022,00,00*4D
$GPTXT,01,01,01,ANTENNA OK*35
$GNGGA,124746.000,3134.28066,N,12015.99507,E,1,19,0.8,28.7,M,0.0,M,,*47
$GNGLL,3134.28066,N,12015.99507,E,124746.000,A,A*4F
$GPGSA,A,3,02,13,15,18,20,24,29,194,195,,,,1.5,0.8,1.3*3F
$BDGSA,A,3,06,09,16,19,35,36,38,39,44,46,,,1.5,0.8,1.3*2D
$GPGSV,3,1,11,02,08,154,23,05,42,083,05,13,42,038,12,15,69,346,23*7A
$GPGSV,3,2,11,18,58,302,23,20,17,105,20,23,25,307,21,24,46,177,31*78
$GPGSV,3,3,11,29,19,225,23,194,17,146,29,195,33,176,38*4A
$BDGSV,4,1,13,03,,,27,06,55,219,23,09,43,217,25,16,62,220,25*5D
$BDGSV,4,2,13,19,47,047,19,29,,,15,35,34,215,27,36,34,137,18*5F
$BDGSV,4,3,13,38,77,103,13,39,72,230,23,44,34,282,21,46,31,076,12*67
$BDGSV,4,4,13,59,,,28*6C
$GNRMC,124746.000,A,3134.28066,N,12015.99507,E,0.00,0.00,300522,,,A*7E
$GNVTG,0.00,T,,M,0.00,N,0.00,K,A*23
$GNZDA,124746.000,30,05,2022,00,00*4E
$GPTXT,01,01,01,ANTENNA OK*35
$GNGGA,124747.000,3134.28067,N,12015.99508,E,1,19,0.8,28.7,M,0.0,M,,*48
$GNGLL,3134.28067,N,12015.99508,E,124747.000,A,A*40
$GPGSA,A,3,02,13,15,18,20,24,29,194,195,,,,1.5,0.8,1.3*3F
$BDGSA,A,3,06,09,16,19,35,36,38,39,44,46,,,1.5,0.8,1.3*2D
$GPGSV,3,1,11,02,08,154,23,05,42,083,05,13,42,038,12,15,69,346,23*7A
$GPGSV,3,2,11,18,58,302,23,20,17,105,20,23,25,307,21,24,46,177,31*78
$GPGSV,3,3,11,29,19,225,23,194,17,146,29,195,33,176,38*4A
$BDGSV,4,1,14,03,,,26,06,55,219,23,09,43,217,24,16,62,220,25*5A
$BDGSV,4,2,14,19,47,047,19,22,,,23,29,,,15,35,34,215,27*67
$BDGSV,4,3,14,36,34,137,18,38,77,103,13,39,72,230,23,44,34,282,21*6C
$BDGSV,4,4,14,46,31,076,12,59,,,28*59
$GNRMC,124747.000,A,3134.28067,N,12015.99508,E,0.00,0.00,300522,,,A*71
$GNVTG,0.00,T$GNGGA,124748.000,3134.28066,N,12015.99507,E,1,19,0.8,28.7,M,0.0,M,,*49
$GNGLL,3134.28066,N,12015.99507,E,124748.000,A,A*41
$GPGSA,A,3,02,13,15,18,20,24,29,194,195,,,,1.5,0.8,1.3*3F
$BDGSA,A,3,06,09,16,19,35,36,38,39,44,46,,,1.5,0.8,1.3*2D
$GPGSV,3,1,11,02,08,154,22,05,42,083,05,13,42,038,12,15,69,346,23*7B
$GPGSV,3,2,11,18,58,302,23,20,17,105,20,23,25,307,22,24,46,177,31*7B
$GPGSV,3,3,11,29,19,225,24,194,17,,,15,35,34,215,27*67
$BDGSV,4,3,14,36,34,137,18,38,77,103,13,39,72,230,23,44,34,282,21*6C
$BDGSV,4,4,14,46,31,076,12,59,,,28*59
$GNRMC,124748.000,A,3134.28066,N,12015.99507,E,0.00,0.00,300522,,,A*70
$GNVTG,0.00,T,,M,0.00,N,0.00,K,A*23
$GNZDA,124748.000,30,05,2022,00,00*40
$GPTXT,01,01,01,ANTENNA OK*35
$GNGGA,124749.000,3134.28066,N,12015.99507,E,1,19,0.8,28.6,M,0.0,M,,*49
$GNGLL,3134.28066,N,12015.99507,E,124749.000,A,A*40
$GPGSA,A,3,02,13,15,18,20,24,29,194,195,,,,1.5,0.8,1.3*3F
$BDGSA,A,3,06,09,16,19,35,36,38,39,44,46,,,1.5,0.8,1.3*2D
$GPGSV,3,1,11,02,08,154,22,05,42,083,09,13,42,038,12,15,69,346,25*71
$GPGSV,3,2,11,18,58,302,23,20,17,105,20,23,25,307,22,24,46,177,31*7B
$GPGSV,3,3,11,29,19,225,24,194,17,146,29,195,33,176,38*4D
$BDGSV,4,1,14,03,,,26,06,55,219,23,09,43,217,24,16,62,220,26*59
$BDGSV,4,2,14,19,47,047,19,22,,,21,29,,,15,35,34,215,27*65
$BDGSV,4,3,14,36,34,137,18,38,77,103,13,39,72,230,23,44,34,282,22*6F
$BDGSV,4,4,14,46,31,076,14,59,,,28*5F
$GNRMC,124749.000,A,3134.28066,N,12015.99507,E,0.00,0.00,300522,,,A*71
$GNVTG,0.00,T,,M,0.00,N,0.00,K,A*23
$GNZDA,124749.000,30,05,2022,00,00*41
$GPTXT,01,01,01,A$GNGGA,124750.000,3134.28065,N,12015.99506,E,1,19,0.8,28.6,M,0.0,M,,*43
$GNGLL,3134.28065,N,12015.99506,E,124750.000,A,A*4A
$GPGSA,A,3,02,13,15,18,20,24,29,194,195,,,,1.5,0.8,1.3*3F
$BDGSA,A,3,06,09,16,19,35,36,38,39,44,46,,,1.5,0.8,1.3*2D
$GPGSV,3,1,11,02,08,154,22,05,42,083,09,13,42,038,12,15,69,346,25*71
$GPGSV,3,2,11,18,58,302,22,20,17,105,20,23,25,307,22,24,46,177,31*7A
$GPGSV,3,3,11,29,19,225,24,194,17,146,29,195,33,176,38*4D
$BDGSV,4,1,13,03,,,26,06,55,219,23,09,43,217,24,16,62,220,26*5E
$BDGSV,4,2,13,19,47,047,17,29,,,15,35,34,215,27,36,34,137,18*51
$BDGSV,4,3,13,38,77,103,15,39,72,230,23,44,34,282,22,46,31,076,14*64
$BDGSV,4,4,13,59,,,28*6C
$GNRMC,124750.000,A,3134.28065,N,12015.99506,E,0.00,0.00,300522,,,A*7B
$GNVTG,0.00,T,,M,0.00,N,0.00,K,A*23
$GNZDA,124750.000,30,05,2022,00,00*49
$GPTXT,01,01,01,ANTENNA OK*35
$GNGGA,124751.000,3134.28065,N,120195,,,,1.5,0.8,1.3*3F
$BDGSA,A,3,06,09,16,19,35,36,38,39,44,46,,,1.5,0.8,1.3*2D
$GPGSV,3,1,11,02,08,154,22,05,42,083,09,13,42,038,14,15,69,346,25*77
$GPGSV,3,2,11,18,58,302,22,20,17,105,20,23,25,307,22,24,46,177,31*7A
$GPGSV,3,3,11,29,19,225,24,194,17,146,29,195,33,176,38*4D
$BDGSV,4,1,13,03,,,26,06,55,219,23,09,43,217,24,16,62,220,27*5F
$BDGSV,4,2,13,19,47,047,17,29,,,15,35,34,215,27,36,34,137,19*50
$BDGSV,4,3,13,38,77,103,15,39,72,230,23,44,34,282,22,46,31,076,14*64
$BDGSV,4,4,13,59,,,28*6C
$GNRM2022,00,00*48
$GPTXT,01,01,01,ANTENNA OK*35
$GNGGA,124752.000,3134.28065,N,12015.99505,E,1,19,0.8,28.6,M,0.0,M,,*42
$GNGLL,31,36,38,39,44,46,,,1.5,0.8,1.3*2D
$GPGSV,3,1,11,02,08,154,22,05,42,083,09,13,42,038,14,15,69,346,25*77
$GPGSV,3,2,11,18,58,302,22,20,17,105,20,23,25,307,22,24,46,177,31*7A
$GPGSV,3,3,11,29,19,225,24,194,17,146,29,195,33,176,38*4D
$BDGSV,4,1,13,03,,,26,003,15,39,72,230,23,44,34,282,22,46,31,076,14*64
$BDGSV,4,4,13,59,,,28*6C
$GNRMC,124752.000,A,3134.28065,N,12015.99505,E,0.00,0.00,300522,,,A*7A
$GNVTG,0.00,T,,M,0.00,N,0.00,K,A*23
$GNZDA,124752.000,30,05,2022,00,00*4B
$GPTXT,01,01,01,ANTENNA OK*35
$GNGGA,124753.000,3134.28065,N,12015.99504,E,1,19,0.8,28.6,M,0.0,M,,*42
$GNGLL,3134.28065,N,12015.99504,E,124753.000,A,A*4B
$GPGSA,A,3,02,13,15,18,20,24,29,194,195,,,,1.5,0.8,1.3*3F
$BDGSA,A,3,06,09,16,19,35,36,38,39,44,46,,,1.5,0.8,1.3*2D
$GPGSV,3,1,11,02,08,154,22,05,42,083,09,13,42,038,14,15,69,346,25*77
$GPGSV,3,2,11,18,58,302,22,20,17,105,20,23,25,307,23,24,46,177,31*7B
$GPGSV,3,3,11,29,19,225,24,194,17,146,28,195,33,176,38*4C
$BDGSV,4,1,13,03,,,26,06,55,219,23,09,43,217,24,16,62,220,27*5F
$BDGSV,4,2,13,19,47,047,17,29,,,15,35,34,215,27,36,34,137,19*50
$BDGSV,4,3,13,38,77,103,15,39,72,230,23,44,34,282,22,46,31,076,14*64
K,A*23
$GNZDA,124753.000,30,05,2022,00,00*4A
$GPTXT,01,01,01,ANTENNA OK*35
$GNGGA,124754.000,3134.28065,N,12015.99503,E,1,19,0.8,28.6,M,0.0,M,,*42
$GNGLL,3134.28065,N,12015.99503,E,124754.000,A,A*4B
$GPGSA,A,3,02,13,15,18,20,24,29,194,195,,,,1.5,0.8,1.3*3F
$BDGSA,A,3,06,09,16,19,35,36,38,39,44,46,,,1.5,0.8,1.3*2D
$GPGSV,3,1,11,02,08,154,22,05,42,083,09,13,42,038,14,15,69,346,26*74
$GPGSV,3,2,11,18,58,302,22,20,17,105,20,23,25,307,23,24,46,177,31*7B
$GPGSV,3,3,11,29,19,225,25,194,17,146,28,195,33,176,38*4D
$BDGSV,4,1,13,03,,,26,06,55,219,23,09,43,217,24,16,62,220,25*5D
$BDGSV,4,2,13,19,47,047,17,29,,,15,35,34,215,27,36,34,134.28065,N,12015.99503,E,0.00,0.00,300522,,,A*7A
$GNVTG,0.00,T,,M,0.00,N,0.00,K,A*23
$GNZDA,124754.000,30,05,2022,00,00*4D
$GPTXT,01,01,01,ANTENNA OK*35
$GNGGA,124755.000,3134.28063,N,12015.99499,E,1,19,0.8,28.6,M,0.0,M,,*47
$GNGLL,3134.28063,N,12015.99499,E,124755.000,A,A*4E
$GPGSA,A,3,02,13,15,18,20,24,29,194,195,,,,1.5,0.8,1.3*3F
$BDGSA,A,3,06,09,16,19,35,36,38,39,44,46,,,1.5,0.8,1.3*2D
$GPGSV,3,1,11,02,08,154,22,05,42,083,09,13,42,038,14,15,69,346,26*74
$GPGSV,3,2,11,18,58,302,22,20,17,105,20,23,25,307,23,24,46,177,31*7B
$GPGSV,3,3,11,29,19,225,25,194,17,146,28,195,33,176,37*42
$BDGSV,4,1,13,03,,,26,06,55,219,23,09,43,217,24,16,62,220,25*5D
$BDGSV,4,2,13,19,47,047,17,29,,,15,35,34,215,28,36,34,137,19*5F
$BDGSV,4,3,13,38,77,103,15,39,72,230,23,44,34,282,22,46,31,076,14*64
$BDGSV,4,4,13,59,,,28*6C
$GNRMC,124755.000,A,3134.28063,N,12015.99499,E,0.00,0.00,300522,,,A*7F
$GNVTG,0.00,T,,M,0.00,N,0.00,K,A*23
$GNZDA,124755.000,30,05,2022,00,00*4C
$GPTXT,01,01,01,ANTENNA OK*35
$GNGGA,124756.000,3134.28063,N,12015.99499,E,1,19,0.8,28.6,M,0.0,M,,*44
$GNGLL,3134.28063,N,12015.99499,E,124756.000,A,A*4D
$GPGSA,A,3,02,13,15,18,20,24,29,194,195,,,,1.5,0.8,1.3*3F
$BDGSA,A,3,06,09,16,19,35,36,38,39,44,46,,,1.5,0.8,1.3*2D
$GPGSV,3,1,11,02,08,154,22,05,42,083,09,13,42,038,14,15,69,346,26*74
$GPGSV,3,2,11,18,58,302,20,20,17,105,21,23,25,307,23,24,46,177,31*78
$GPGSV,3,3,11,29,19,225,25,194,17,146,29,195,33,176,37*43
$BDGSV,4,1,13,03,,,26,06,55,219,23,09,43,217,24,16,62,220,25*5D
$BDGSV,4,2,13,19,47,047,17,29,,,15,35,34,215,28,36,34,137,19*5F
$BDGSV,4,3,13,38,77,103,15,39,72,230,23,44,34,282,22,46,31,076,14*64
$BDGSV,4,4,13,524756.000,30,05,2022,00,00*4F
$GPTXT,01,01,01,ANTENNA OK*35
,,*44
$GNGLL,3134.28063,N,12015.99498,E,124757.000,A,A*4D
$GPGSA,A,3,02,13,15,18,20,24,29,194,195,,,,1.5,0.8,1.3*3F
$BDGSA,A,,2,11,18,58,302,20,20,17,105,21,23,25,307,23,24,46,177,32*7B
$GPGSV,3,3,11,29,19,225,26,194,17,146,29,195,33,176,37*40
$BDGSV,4,1,13,03,,,28,06,55,219,23,09,43,217,24,16,62,220,25*53
$BDGSV,4,2,13,19,47,047,14,29,,,15,35,34,215,28,36,34,137,19*5C
$BDGSV,4,3,13,38,77,103,09,39,72,230,23,44,34,282,22,46,31,076,14*69
$BDGSV,4,4,13,59,,,28*6C
$GNRMC,124757.000,A,3134.28063,N,12015.99498,E,0.00,0.00,300522,,,A*7C
$GNVTG,0.00,T,,M,0.00,N,0.00,K,A*23
$GNZDA,124757.000,30,05,2022,00,00*4E
$GPTXT,01,01,01,ANTENNA OK*35
$GNGGA,124758.000,3134.28063,N,12015.99499,E,1,19,0.8,28.6,M,0.0,M,,*4A
$GNGLL,3134.28063,N,12015.99499,E,124758.000,A,A*43
$GPGSA,A,3,02,13,15,18,20,24,29,194,195,,,,1.5,0.8,1.3*3F
$BDGSA,A,3,06,09,16,19,35,36,38,39,44,46,,,1.5,0.8,1.3*2D
$GPGSV,3,1,11,02,07,154,22,05,42,083,09,13,42,038,14,15,69,346,26*7B
$GPGSV,3,2,11,18,58,302,20,20,17,105,21,23,25,307,23,24,46,1