$GPTXT,01,01,01,ANTENNA OK*35
$GNGGA,055742.000,3134.29205,N,12015.98386,E,1,06,7.3,6.8,M,0.0,M,,*7D
$GNGLL,3134.29205,N,12015.98386,E,055742.000,A,A*44
$GPGSA,A,3,193,195,,,,,,,,,,,10.8,7.3,8.0*01
$BDGSA,A,3,07,10,40,41,,,,,,,,,10.8,7.3,8.0*11
$GPGSV,3,1,10,03,23,280,,04,19,319,,16,49,243,,26,75,327,*7A
$GPGSV,3,2,10,27,14,187,,29,23,050,,31,55,050,,32,34,149,*75
$GPGSV,3,3,10,193,38,165,30,195,29,145,25*78
$BDGSV,2,1,06,07,56,223,17,10,45,224,13,25,29,062,,28,,,31*5A
$BDGSV,2,2,06,40,67,213,22,41,27,189,30*68
$GNRMC,055742.000,A,3134.29205,N,12015.98386,E,0.92,177.98,090122,,,A*70
$GNVTG,177.98,T,,M,0.92,N,1.70,K,A*2E
$GNZDA,055742.000,09,01,2022,00,00*43
$GPTXT,01,01,01,ANTENNA OK*35
$GNGGA,055743.000,3134.29210,N,12015.98349,E,1,06,7.3,8.4,M,0.0,M,,*79
$GNGLL,3134.29210,N,12015.98349,E,055743.000,A,A*42
$GPGSA,A,3,193,195,,,,,,,,,,,10.8,7.3,8.0*01
$BDGSA,A,3,07,10,40,41,,,,,,,,,10.8,7.3,8.0*11
$GPGSV,3,1,10,03,23,280,,04,19,319,,16,49,243,,26,75,327,*7A
$GPGSV,3,2,10,27,14,187,,29,23,050,,31,55,050,,32,34,149,*75
$GPGSV,3,3,10,193,38,165,30,195,29,145,25*78
$BDGSV,2,1,06,07,56,223,13,10,45,224,13,25,29,062,,28,,,31*5E
$BDGSV,2,2,06,40,67,213,22,41,27,189,30*68
$GNRMC,055743.000,A,3134.29210,N,12015.98349,E,1.55,177.98,090122,,,A*7C
$GNVTG,177.98,T,,M,1.55,N,2.86,K,A*2E
$GNZDA,055743.000,09,01,2022,00,00*42
$GPTXT,01,01,01,ANTENNA OK*35
$GNGGA,055744.000,3134.29246,N,12015.98319,E,1,06,7.3,10.3,M,0.0,M,,*46
$GNGLL,3134.29246,N,12015.98319,E,055744.000,A,A*43
$GPGSA,A,3,193,195,,,,,,,,,,,10.8,7.3,8.0*01
$BDGSA,A,3,07,10,40,41,,,,,,,,,10.8,7.3,8.0*11
$GPGSV,3,1,10,03,23,280,,04,19,319,,16,49,243,,26,75,327,*7A
$GPGSV,3,2,10,27,14,187,,29,23,050,,31,55,050,,32,34,149,*75
$GPGSV,3,3,10,193,38,165,31,195,29,145,25*79
$BDGSV,2,1,06,07,56,223,13,10,45,224,13,25,29,062,,28,,,31*5E
$BDGSV,2,2,06,40,67,213,22,41,27,189,31*69
$GNRMC,055744.000,A,3134.29246,N,12015.98319,E,1.32,177.98,090122,,,A*7C
$GNVTG,177.98,T,,M,1.32,N,2.44,K,A*21
$GNZDA,055744.000,09,01,2022,00,00*45
$GPTXT,01,01,01,ANTENNA OK*35
$GNGGA,055745.000,3134.29270,N,12015.98272,E,1,06,7.3,11.3,M,0.0,M,,*4F
$GNGLL,3134.29270,N,12015.98272,E,055745.000,A,A*4B
$GPGSA,A,3,193,195,,,,,,,,,,,10.8,7.3,8.0*01
$BDGSA,A,3,07,10,40,41,,,,,,,,,10.8,7.3,8.0*11
$GPGSV,3,1,10,03,23,280,,04,19,319,,16,49,243,,26,75,327,*7A
$GPGSV,3,2,10,27,14,187,,29,23,050,,31,55,050,,32,34,149,*75
$GPGSV,3,3,10,193,38,165,31,195,29,145,25*79
$BDGSV,2,1,06,07,56,223,13,10,45,224,13,25,29,062,,28,,,31*5E
$BDGSV,2,2,06,40,67,213,22,41,27,189,31*69
$GNRMC,055745.000,A,3134.29270,N,12015.98272,E,1.38,177.98,090122,,,A*7E
$GNVTG,177.98,T,,M,1.38,N,2.56,K,A*28
$GNZDA,055745.000,09,01,2022,00,00*44
$GPTXT,01,01,01,ANTENNA OK*35
$GNGGA,055746.000,3134.29299,N,12015.98235,E,1,06,7.3,11.9,M,0.0,M,,*42
$GNGLL,3134.29299,N,12015.98235,E,055746.000,A,A*4C
$GPGSA,A,3,193,195,,,,,,,,,,,10.9,7.3,8.0*00
$BDGSA,A,3,07,10,40,41,,,,,,,,,10.9,7.3,8.0*10
$GPGSV,3,1,10,03,23,280,,04,19,319,,16,49,243,,26,75,327,*7A
$GPGSV,3,2,10,27,14,187,,29,23,050,,31,55,050,,32,34,149,*75
$GPGSV,3,3,10,193,38,165,31,195,29,145,25*79
$BDGSV,2,1,06,07,56,223,13,10,45,224,13,25,29,062,,28,,,31*5E
$BDGSV,2,2,06,40,67,213,22,41,27,189,31*69
$GNRMC,055746.000,A,3134.29299,N,12015.98235,E,1.06,177.98,090122,,,A*74
$GNVTG,177.98,T,,M,1.06,N,1.96,K,A*2A
$GNZDA,055746.000,09,01,2022,00,00*47
$GPTXT,01,01,01,ANTENNA OK*35
$GNGGA,055747.000,3134.29344,N,12015.98208,E,1,06,7.3,12.5,M,0.0,M,,*43
$GNGLL,3134.29344,N,12015.98208,E,055747.000,A,A*42
$GPGSA,A,3,193,195,,,,,,,,,,,10.9,7.3,8.0*00
$BDGSA,A,3,07,10,40,41,,,,,,,,,10.9,7.3,8.0*10
$GPGSV,3,1,10,03,23,280,,04,19,319,,16,49,243,,26,75,327,*7A
$GPGSV,3,2,10,27,14,187,,29,23,050,,31,55,050,,32,34,149,*75
$GPGSV,3,3,10,193,38,165,31,195,29,145,25*79
$BDGSV,2,1,06,07,56,223,13,10,45,224,13,25,29,062,,28,,,31*5E
$BDGSV,2,2,06,40,67,213,22,41,27,189,32*6A
$GNRMC,055747.000,A,3134.29344,N,12015.98208,E,1.03,177.98,090122,,,A*7F
$GNVTG,177.98,T,,M,1.03,N,1.90,K,A*29
$GNZDA,055747.000,09,01,2022,00,00*46
$GPTXT,01,01,01,ANTENNA OK*35
$GNGGA,055748.000,3134.29407,N,12015.98167,E,1,06,7.3,12.3,M,0.0,M,,*40
$GNGLL,3134.29407,N,12015.98167,E,055748.000,A,A*47
$GPGSA,A,3,193,195,,,,,,,,,,,10.9,7.3,8.0*00
$BDGSA,A,3,07,10,40,41,,,,,,,,,10.9,7.3,8.0*10
$GPGSV,3,1,10,03,23,280,,04,19,319,,16,49,243,,26,75,327,*7A
$GPGSV,3,2,10,27,14,187,,29,23,050,,31,55,050,,32,34,149,*75
$GPGSV,3,3,10,193,38,165,31,195,29,145,25*79
$BDGSV,2,1,06,07,56,223,13,10,45,224,13,25,29,063,,28,,,31*5F
$BDGSV,2,2,06,40,67,213,22,41,27,189,32*6A
$GNRMC,055748.000,A,3134.29407,N,12015.98167,E,1.33,177.98,090122,,,A*79
$GNVTG,177.98,T,,M,1.33,N,2.47,K,A*23
$GNZDA,055748.000,09,01,2022,00,00*49
$GPTXT,01,01,01,ANTENNA OK*35
$GNGGA,055749.000,3134.29470,N,12015.98121,E,1,06,7.3,11.6,M,0.0,M,,*45
$GNGLL,3134.29470,N,12015.98121,E,055749.000,A,A*44
$GPGSA,A,3,193,195,,,,,,,,,,,10.9,7.3,8.0*00
$BDGSA,A,3,07,10,40,41,,,,,,,,,10.9,7.3,8.0*10
$GPGSV,3,1,10,03,23,280,,04,19,319,,16,49,243,,26,75,327,*7A
$GPGSV,3,2,10,27,14,187,,29,23,050,,31,55,050,,32,34,149,*75
$GPGSV,3,3,10,193,38,165,31,195,29,145,25*79
$BDGSV,2,1,06,07,56,223,13,10,45,224,13,25,29,063,,28,,,31*5F
$BDGSV,2,2,06,40,67,213,22,41,27,189,32*6A
$GNRMC,055749.000,A,3134.29470,N,12015.98121,E,1.33,177.98,090122,,,A*7A
$GNVTG,177.98,T,,M,1.33,N,2.45,K,A*21
$GNZDA,055749.000,09,01,2022,00,00*48
$GPTXT,01,01,01,ANTENNA OK*35
$GNGGA,055750.000,3134.29561,N,12015.98072,E,1,06,7.3,9.6,M,0.0,M,,*72
$GNGLL,3134.29561,N,12015.98072,E,055750.000,A,A*4A
$GPGSA,A,3,193,195,,,,,,,,,,,10.9,7.3,8.0*00
$BDGSA,A,3,07,10,40,41,,,,,,,,,10.9,7.3,8.0*10
$GPGSV,3,1,10,03,23,280,,04,19,319,,16,49,244,,26,75,327,*7D
$GPGSV,3,2,10,27,14,187,,29,23,050,,31,55,050,,32,34,149,*75
$GPGSV,3,3,10,193,38,165,31,195,29,145,25*79
$BDGSV,2,1,06,07,56,223,13,10,45,224,13,25,29,063,,28,,,31*5F
$BDGSV,2,2,06,40,67,213,22,41,27,189,32*6A
$GNRMC,055750.000,A,3134.29561,N,12015.98072,E,1.39,177.98,090122,,,A*7E
$GNVTG,177.98,T,,M,1.39,N,2.57,K,A*28
$GNZDA,055750.000,09,01,2022,00,00*40
$GPTXT,01,01,01,ANTENNA OK*35
$GNGGA,055751.000,3134.29629,N,12015.98027,E,1,06,7.3,9.2,M,0.0,M,,*78
$GNGLL,3134.29629,N,12015.98027,E,055751.000,A,A*44
$GPGSA,A,3,193,195,,,,,,,,,,,10.9,7.3,8.0*00
$BDGSA,A,3,07,10,40,41,,,,,,,,,10.9,7.3,8.0*10
$GPGSV,3,1,10,03,23,280,,04,19,319,,16,49,244,,26,75,327,*7D
$GPGSV,3,2,10,27,14,187,,29,23,050,,31,55,050,,32,34,149,*75
$GPGSV,3,3,10,193,38,165,31,195,29,145,25*79
$BDGSV,2,1,06,07,56,223,13,10,45,224,13,25,29,063,,28,,,31*5F
$BDGSV,2,2,06,40,67,213,22,41,27,189,32*6A
$GNRMC,055751.000,A,3134.29629,N,12015.98027,E,1.60,177.98,090122,,,A*7C
$GNVTG,177.98,T,,M,1.60,N,2.95,K,A*2A
<system_battery_level=-48
$GNZDA,055751.000,09,01,2022,00,00*41
$GPTXT,01,01,01,ANTENNA OK*35
$GNGGA,055752.000,3134.29732,N,12015.97982,E,1,06,7.3,7.7,M,0.0,M,,*72
$GNGLL,3134.29732,N,12015.97982,E,055752.000,A,A*45
$GPGSA,A,3,193,195,,,,,,,,,,,10.9,7.3,8.0*00
$BDGSA,A,3,07,10,40,41,,,,,,,,,10.9,7.3,8.0*10
$GPGSV,3,1,10,03,23,280,,04,19,319,,16,49,244,,26,75,327,*7D
$GPGSV,3,2,10,27,14,187,,29,23,050,,31,55,050,,32,34,149,*75
$GPGSV,3,3,10,193,38,165,31,195,29,145,25*79
$BDGSV,2,1,06,07,56,223,13,10,45,224,13,25,29,063,,28,,,31*5F
$BDGSV,2,2,06,40,67,213,22,41,27,189,32*6A
$GNRMC,055752.000,A,3134.29732,N,12015.97982,E,1.80,177.98,090122,,,A*73
$GNVTG,177.98,T,,M,1.80,N,3.34,K,A*2E
$GNZDA,055752.000,09,01,2022,00,00*42
$GPTXT,01,01,01,ANTENNA OK*35
$GNGGA,055753.000,3134.29783,N,12015.97936,E,1,06,7.3,7.4,M,0.0,M,,*75
$GNGLL,3134.29783,N,12015.97936,E,055753.000,A,A*41
$GPGSA,A,3,193,195,,,,,,,,,,,10.9,7.3,8.0*00
$BDGSA,A,3,07,10,40,41,,,,,,,,,10.9,7.3,8.0*10
$GPGSV,3,1,10,03,23,280,,04,19,319,,16,49,244,,26,75,327,*7D
$GPGSV,3,2,10,27,14,187,,29,23,050,,31,55,050,,32,34,149,*75
$GPGSV,3,3,10,193,38,165,31,195,29,145,25*79
$BDGSV,2,1,06,07,56,223,13,10,45,224,11,25,29,063,,28,,,31*5D
$BDGSV,2,2,06,40,67,213,22,41,27,189,32*6A
$GNRMC,055753.000,A,3134.29783,N,12015.97936,E,1.83,177.98,090122,,,A*74
$GNVTG,177.98,T,,M,1.83,N,3.39,K,A*20
$GNZDA,055753.000,09,01,2022,00,00*43
$GPTXT,01,01,01,ANTENNA OK*35
$GNGGA,055754.000,3134.29850,N,12015.97888,E,1,06,7.3,6.7,M,0.0,M,,*75
$GNGLL,3134.29850,N,12015.97888,E,055754.000,A,A*43
$GPGSA,A,3,193,195,,,,,,,,,,,10.9,7.3,8.0*00
$BDGSA,A,3,07,10,40,41,,,,,,,,,10.9,7.3,8.0*10
$GPGSV,3,1,10,03,23,280,,04,19,319,,16,49,244,,26,75,327,*7D
$GPGSV,3,2,10,27,14,187,,29,23,050,,31,55,050,,32,34,149,26*71
$GPGSV,3,3,10,193,38,165,31,195,29,145,25*79
$BDGSV,2,1,06,07,56,223,13,10,45,225,11,25,29,063,,28,,,31*5C
$BDGSV,2,2,06,40,67,213,22,41,27,189,32*6A
$GNRMC,055754.000,A,3134.29850,N,12015.97888,E,1.87,177.98,090122,,,A*72
$GNVTG,177.98,T,,M,1.87,N,3.46,K,A*2C
$GNZDA,055754.000,09,01,2022,00,00*44
$GPTXT,01,01,01,ANTENNA OK*35
$GNGGA,055755.000,3134.29938,N,12015.97848,E,1,06,7.3,5.9,M,0.0,M,,*7A
$GNGLL,3134.29938,N,12015.97848,E,055755.000,A,A*41
$GPGSA,A,3,193,195,,,,,,,,,,,10.9,7.3,8.0*00
$BDGSA,A,3,07,10,40,41,,,,,,,,,10.9,7.3,8.0*10
$GPGSV,3,1,10,03,23,280,,04,19,319,,16,49,244,,26,75,327,*7D
$GPGSV,3,2,10,27,14,187,,29,23,050,,31,55,050,,32,34,149,26*71
$GPGSV,3,3,10,193,38,165,31,195,29,145,25*79
$BDGSV,2,1,06,07,56,223,13,10,45,225,11,25,29,063,,28,,,31*5C
$BDGSV,2,2,06,40,67,213,22,41,27,189,32*6A
$GNRMC,055755.000,A,3134.29938,N,12015.97848,E,2.01,345.01,090122,,,A*7E
$GNVTG,345.01,T,,M,2.01,N,3.73,K,A*24
$GNZDA,055755.000,09,01,2022,00,00*45
$GPTXT,01,01,01,ANTENNA OK*35
$GNGGA,055756.000,3134.30050,N,12015.97831,E,1,06,7.3,4.2,M,0.0,M,,*72
$GNGLL,3134.30050,N,12015.97831,E,055756.000,A,A*43
$GPGSA,A,3,193,195,,,,,,,,,,,10.9,7.3,8.0*00
$BDGSA,A,3,07,10,40,41,,,,,,,,,10.9,7.3,8.0*10
$GPGSV,3,1,10,03,23,280,,04,19,319,,16,49,244,,26,75,327,*7D
$GPGSV,3,2,10,27,14,187,,29,23,050,,31,55,050,,32,34,149,26*71
$GPGSV,3,3,10,193,38,165,31,195,29,145,25*79
$BDGSV,2,1,06,07,56,223,13,10,45,225,11,25,29,063,,28,,,31*5C
$BDGSV,2,2,06,40,67,213,22,41,27,189,32*6A
$GNRMC,055756.000,A,3134.30050,N,12015.97831,E,2.11,349.85,090122,,,A*7D
$GNVTG,349.85,T,,M,2.11,N,3.90,K,A*28
$GNZDA,055756.000,09,01,2022,00,00*46
$GPTXT,01,01,01,ANTENNA OK*35
$GNGGA,055757.000,3134.30126,N,12015.97802,E,1,06,7.3,3.3,M,0.0,M,,*75
$GNGLL,3134.30126,N,12015.97802,E,055757.000,A,A*42
$GPGSA,A,3,193,195,,,,,,,,,,,10.9,7.3,8.0*00
$BDGSA,A,3,07,10,40,41,,,,,,,,,10.9,7.3,8.0*10
$GPGSV,3,1,10,03,23,280,,04,19,319,,16,49,244,,26,75,327,*7D
$GPGSV,3,2,10,27,14,187,,29,23,050,,31,55,050,,32,34,149,26*71
$GPGSV,3,3,10,193,38,165,31,195,29,145,24*78
$BDGSV,2,1,06,07,56,223,13,10,45,225,11,25,29,063,,28,,,31*5C
$BDGSV,2,2,06,40,67,213,22,41,27,189,32*6A
$GNRMC,055757.000,A,3134.30126,N,12015.97802,E,2.04,347.98,090122,,,A*7A
$GNVTG,347.98,T,,M,2.04,N,3.78,K,A*28
$GNZDA,055757.000,09,01,2022,00,00*47
$GPTXT,01,01,01,ANTENNA OK*35
$GNGGA,055758.000,3134.30188,N,12015.97763,E,1,06,7.3,3.0,M,0.0,M,,*75
$GNGLL,3134.30188,N,12015.97763,E,055758.000,A,A*41
$GPGSA,A,3,193,195,,,,,,,,,,,10.9,7.3,8.0*00
$BDGSA,A,3,07,10,40,41,,,,,,,,,10.9,7.3,8.0*10
$GPGSV,3,1,10,03,23,280,,04,19,319,,16,49,244,,26,75,327,*7D
$GPGSV,3,2,10,27,14,187,,29,23,050,,31,55,050,,32,34,149,26*71
$GPGSV,3,3,10,193,38,165,31,195,29,145,24*78
$BDGSV,2,1,06,07,56,223,11,10,45,225,11,25,29,063,,28,,,31*5E
$BDGSV,2,2,06,40,67,213,22,41,27,189,32*6A
$GNRMC,055758.000,A,3134.30188,N,12015.97763,E,2.10,337.10,090122,,,A*7B
$GNVTG,337.10,T,,M,2.10,N,3.89,K,A*24
$GNZDA,055758.000,09,01,2022,00,00*48
$GPTXT,01,01,01,ANTENNA OK*35
$GNGGA,055759.000,3134.30238,N,12015.97731,E,1,06,7.3,3.1,M,0.0,M,,*7A
$GNGLL,3134.30238,N,12015.97731,E,055759.000,A,A*4F
$GPGSA,A,3,193,195,,,,,,,,,,,10.9,7.3,8.0*00
$BDGSA,A,3,07,10,40,41,,,,,,,,,10.9,7.3,8.0*10
$GPGSV,3,1,10,03,23,280,,04,19,319,,16,49,244,,26,75,327,*7D
$GPGSV,3,2,10,27,14,187,,29,23,050,,31,55,050,,32,34,149,26*71
$GPGSV,3,3,10,193,38,165,31,195,29,145,24*78
$BDGSV,2,1,06,07,56,223,11,10,45,225,11,25,29,063,,28,,,31*5E
$BDGSV,2,2,06,40,67,213,22,41,27,189,32*6A
$GNRMC,055759.000,A,3134.30238,N,12015.97731,E,2.37,333.98,090122,,,A*74
$GNVTG,333.98,T,,M,2.37,N,4.39,K,A*29
$GNZDA,055759.000,09,01,2022,00,00*49
$GPTXT,01,01,01,ANTENNA OK*35
$GNGGA,055800.000,3134.30279,N,12015.97698,E,1,06,7.3,3.5,M,0.0,M,,*7A
$GNGLL,3134.30279,N,12015.97698,E,055800.000,A,A*4B
$GPGSA,A,3,193,195,,,,,,,,,,,10.9,7.3,8.0*00
$BDGSA,A,3,07,10,40,41,,,,,,,,,10.9,7.3,8.0*10
$GPGSV,3,1,10,03,23,280,,04,19,319,,16,49,244,,26,75,327,*7D
$GPGSV,3,2,10,27,14,187,,29,23,050,,31,55,050,,32,34,149,26*71
$GPGSV,3,3,10,193,38,165,31,195,29,145,24*78
$BDGSV,2,1,06,07,56,223,11,10,45,225,11,25,29,063,,28,,,31*5E
$BDGSV,2,2,06,40,67,213,22,41,27,189,32*6A
$GNRMC,055800.000,A,3134.30279,N,12015.97698,E,2.43,334.95,090122,,,A*79
$GNVTG,334.95,T,,M,2.43,N,4.51,K,A*2E
$GNZDA,055800.000,09,01,2022,00,00*4A
$GPTXT,01,01,01,ANTENNA OK*35
$GNGGA,055801.000,3134.30355,N,12015.97666,E,1,06,7.3,3.3,M,0.0,M,,*73
$GNGLL,3134.30355,N,12015.97666,E,055801.000,A,A*44
$GPGSA,A,3,193,195,,,,,,,,,,,10.9,7.3,8.0*00
$BDGSA,A,3,07,10,40,41,,,,,,,,,10.9,7.3,8.0*10
$GPGSV,3,1,10,03,23,280,,04,19,319,,16,49,244,,26,75,327,*7D
$GPGSV,3,2,10,27,15,187,,29,23,050,,31,55,050,,32,34,149,26*70
$GPGSV,3,3,10,193,38,165,31,195,29,145,24*78
$BDGSV,2,1,06,07,56,223,11,10,45,225,11,25,29,063,,28,,,31*5E
$BDGSV,2,2,06,40,67,213,22,41,27,189,32*6A
$GNRMC,055801.000,A,3134.30355,N,12015.97666,E,2.49,338.89,090122,,,A*7D
$GNVTG,338.89,T,,M,2.49,N,4.62,K,A*25
<system_battery_level=-48
$GNZDA,055801.000,09,01,2022,00,00*4B
$GPTXT,01,01,01,ANTENNA OK*35
$GNGGA,055802.000,3134.30429,N,12015.97636,E,1,06,7.3,3.0,M,0.0,M,,*7A
$GNGLL,3134.30429,N,12015.97636,E,055802.000,A,A*4E
$GPGSA,A,3,193,195,,,,,,,,,,,10.9,7.3,8.0*00
$BDGSA,A,3,07,10,40,41,,,,,,,,,10.9,7.3,8.0*10
$GPGSV,3,1,10,03,23,280,,04,19,319,,16,49,244,,26,75,327,*7D
$GPGSV,3,2,10,27,15,187,,29,23,050,,31,55,050,,32,34,149,26*70
$GPGSV,3,3,10,193,38,165,31,195,29,145,24*78
$BDGSV,2,1,06,07,56,223,11,10,45,225,11,25,29,063,,28,,,31*5E
$BDGSV,2,2,06,40,67,213,22,41,27,189,32*6A
$GNRMC,055802.000,A,3134.30429,N,12015.97636,E,2.50,339.04,090122,,,A*7B
$GNVTG,339.04,T,,M,2.50,N,4.62,K,A*29
$GNZDA,055802.000,09,01,2022,00,00*48
$GPTXT,01,01,01,ANTENNA OK*35
$GNGGA,055803.000,3134.30472,N,12015.97602,E,1,06,7.3,3.3,M,0.0,M,,*71
$GNGLL,3134.30472,N,12015.97602,E,055803.000,A,A*46
$GPGSA,A,3,193,195,,,,,,,,,,,10.9,7.3,8.0*00
$BDGSA,A,3,07,10,40,41,,,,,,,,,10.9,7.3,8.0*10
$GPGSV,3,1,10,03,23,280,,04,19,319,,16,49,244,,26,75,327,*7D
$GPGSV,3,2,10,27,15,187,,29,23,050,,31,55,050,,32,34,149,26*70
$GPGSV,3,3,10,193,38,165,31,195,29,145,24*78
$BDGSV,2,1,06,07,56,223,11,10,45,225,11,25,29,063,,28,,,31*5E
$BDGSV,2,2,06,40,67,213,22,41,27,189,32*6A
$GNRMC,055803.000,A,3134.30472,N,12015.97602,E,2.43,334.44,090122,,,A*78
$GNVTG,334.44,T,,M,2.43,N,4.50,K,A*23
$GNZDA,055803.000,09,01,2022,00,00*49
$GPTXT,01,01,01,ANTENNA OK*35
$GNGGA,055804.000,3134.30507,N,12015.97569,E,1,06,7.3,3.8,M,0.0,M,,*70
$GNGLL,3134.30507,N,12015.97569,E,055804.000,A,A*4C
$GPGSA,A,3,193,195,,,,,,,,,,,10.9,7.3,8.0*00
$BDGSA,A,3,07,10,40,41,,,,,,,,,10.9,7.3,8.0*10
$GPGSV,3,1,10,03,23,280,,04,19,319,,16,49,244,,26,75,327,*7D
$GPGSV,3,2,10,27,15,187,,29,23,050,,31,55,050,,32,34,149,27*71
$GPGSV,3,3,10,193,38,165,31,195,29,145,24*78
$BDGSV,2,1,06,07,56,223,11,10,45,225,11,25,29,063,,28,,,30*5F
$BDGSV,2,2,06,40,67,213,22,41,27,189,32*6A
$GNRMC,055804.000,A,3134.30507,N,12015.97569,E,2.30,332.34,090122,,,A*77
$GNVTG,332.34,T,,M,2.30,N,4.26,K,A*27
$GNZDA,055804.000,09,01,2022,00,00*4E
$GPTXT,01,01,01,ANTENNA OK*35
$GNGGA,055805.000,3134.30501,N,12015.97533,E,1,06,7.3,5.1,M,0.0,M,,*77
$GNGLL,3134.30501,N,12015.97533,E,055805.000,A,A*44
$GPGSA,A,3,193,195,,,,,,,,,,,10.9,7.3,8.0*00
$BDGSA,A,3,07,10,40,41,,,,,,,,,10.9,7.3,8.0*10
$GPGSV,3,1,10,03,23,280,,04,19,319,,16,49,244,,26,75,327,*7D
$GPGSV,3,2,10,27,15,187,,29,23,050,,31,55,050,,32,34,149,27*71
$GPGSV,3,3,10,193,38,165,31,195,29,145,24*78
$BDGSV,2,1,06,07,56,223,11,10,45,225,11,25,29,063,,28,,,30*5F
$BDGSV,2,2,06,40,67,213,22,41,27,189,32*6A
$GNRMC,055805.000,A,3134.30501,N,12015.97533,E,2.32,325.02,090122,,,A*7E
$GNVTG,325.02,T,,M,2.32,N,4.30,K,A*21
$GNZDA,055805.000,09,01,2022,00,00*4F
$GPTXT,01,01,01,ANTENNA OK*35
$GNGGA,055806.000,3134.30552,N,12015.97495,E,1,06,7.3,5.2,M,0.0,M,,*7C
$GNGLL,3134.30552,N,12015.97495,E,055806.000,A,A*4C
$GPGSA,A,3,193,195,,,,,,,,,,,10.9,7.3,8.0*00
$BDGSA,A,3,07,10,40,41,,,,,,,,,10.9,7.3,8.0*10
$GPGSV,3,1,10,03,23,280,,04,19,319,,16,49,244,,26,75,327,*7D
$GPGSV,3,2,10,27,15,187,,29,23,050,,31,54,050,,32,34,149,27*70
$GPGSV,3,3,10,193,38,165,31,195,29,145,23*7F
$BDGSV,2,1,06,07,56,223,11,10,45,225,11,25,29,063,,28,,,30*5F
$BDGSV,2,2,06,40,67,213,22,41,27,189,33*6B
$GNRMC,055806.000,A,3134.30552,N,12015.97495,E,2.41,329.88,090122,,,A*7C
$GNVTG,329.88,T,,M,2.41,N,4.46,K,A*2A
$GNZDA,055806.000,09,01,2022,00,00*4C
$GPTXT,01,01,01,ANTENNA OK*35
$GNGGA,055807.000,3134.30630,N,12015.97460,E,1,06,7.3,5.1,M,0.0,M,,*73
$GNGLL,3134.30630,N,12015.97460,E,055807.000,A,A*40
$GPGSA,A,3,193,195,,,,,,,,,,,10.9,7.3,8.0*00
$BDGSA,A,3,07,10,40,41,,,,,,,,,10.9,7.3,8.0*10
$GPGSV,3,1,10,03,23,280,,04,19,319,,16,49,244,,26,75,327,*7D
$GPGSV,3,2,10,27,15,187,,29,23,050,,31,54,050,,32,34,149,27*70
$GPGSV,3,3,10,193,38,165,32,195,29,145,23*7C
$BDGSV,2,1,06,07,56,223,11,10,45,225,11,25,29,063,,28,,,30*5F
$BDGSV,2,2,06,40,67,213,22,41,27,189,33*6B
$GNRMC,055807.000,A,3134.30630,N,12015.97460,E,2.51,334.26,090122,,,A*79
$GNVTG,334.26,T,,M,2.51,N,4.64,K,A*23
$GNZDA,055807.000,09,01,2022,00,00*4D
$GPTXT,01,01,01,ANTENNA OK*35
$GNGGA,055808.000,3134.30691,N,12015.97425,E,1,06,7.3,5.3,M,0.0,M,,*74
$GNGLL,3134.30691,N,12015.97425,E,055808.000,A,A*45
$GPGSA,A,3,193,195,,,,,,,,,,,10.9,7.3,8.0*00
$BDGSA,A,3,07,10,40,41,,,,,,,,,10.9,7.3,8.0*10
$GPGSV,3,1,10,03,23,280,,04,19,319,,16,49,244,,26,75,327,*7D
$GPGSV,3,2,10,27,15,187,,29,23,050,,31,54,050,,32,34,149,27*70
$GPGSV,3,3,10,193,38,165,32,195,29,145,23*7C
$BDGSV,2,1,06,07,56,223,11,10,45,225,11,25,29,063,,28,,,30*5F
$BDGSV,2,2,06,40,67,213,22,41,27,189,33*6B
$GNRMC,055808.000,A,3134.30691,N,12015.97425,E,2.58,334.63,090122,,,A*74
$GNVTG,334.63,T,,M,2.58,N,4.77,K,A*29
$GNZDA,055808.000,09,01,2022,00,00*42
$GPTXT,01,01,01,ANTENNA OK*35
$GNGGA,055809.000,3134.30776,N,12015.97393,E,1,06,7.3,4.9,M,0.0,M,,*7C
$GNGLL,3134.30776,N,12015.97393,E,055809.000,A,A*46
$GPGSA,A,3,193,195,,,,,,,,,,,10.9,7.3,8.0*00
$BDGSA,A,3,07,10,40,41,,,,,,,,,10.9,7.3,8.0*10
$GPGSV,3,1,10,03,22,279,,04,19,319,,16,49,244,,26,75,327,*7A
$GPGSV,3,2,10,27,15,187,,29,23,050,,31,54,050,,32,34,149,28*7F
$GPGSV,3,3,10,193,38,165,32,195,29,145,23*7C
$BDGSV,2,1,06,07,56,223,11,10,45,225,11,25,29,063,,28,,,30*5F
$BDGSV,2,2,06,40,67,213,22,41,27,189,33*6B
$GNRMC,055809.000,A,3134.30776,N,12015.97393,E,2.50,337.24,090122,,,A*7F
$GNVTG,337.24,T,,M,2.50,N,4.64,K,A*23
$GNZDA,055809.000,09,01,2022,00,00*43
$GPTXT,01,01,01,ANTENNA OK*35
$GNGGA,055810.000,3134.30864,N,12015.97367,E,1,05,7.4,4.4,M,0.0,M,,*7A
$GNGLL,3134.30864,N,12015.97367,E,055810.000,A,A*49
$GPGSA,A,3,193,195,,,,,,,,,,,10.9,7.4,8.0*07
$BDGSA,A,3,10,40,41,,,,,,,,,,10.9,7.4,8.0*10
$GPGSV,3,1,10,03,22,279,,04,19,319,,16,49,244,,26,75,327,*7A
$GPGSV,3,2,10,27,15,187,,29,23,050,,31,54,050,,32,34,149,28*7F
$GPGSV,3,3,10,193,38,165,31,195,29,145,23*7F
$BDGSV,2,1,06,07,56,223,08,10,45,225,11,25,29,063,,28,,,30*57
$BDGSV,2,2,06,40,67,213,23,41,27,189,33*6A
$GNRMC,055810.000,A,3134.30864,N,12015.97367,E,2.37,340.26,090122,,,A*73
$GNVTG,340.26,T,,M,2.37,N,4.39,K,A*28
$GNZDA,055810.000,09,01,2022,00,00*4B
$GPTXT,01,01,01,ANTENNA OK*35
$GNGGA,055811.000,3134.30934,N,12015.97346,E,1,05,7.4,4.1,M,0.0,M,,*79
$GNGLL,3134.30934,N,12015.97346,E,055811.000,A,A*4F
$GPGSA,A,3,193,195,,,,,,,,,,,10.9,7.4,8.1*06
$BDGSA,A,3,10,40,41,,,,,,,,,,10.9,7.4,8.1*11
$GPGSV,3,1,10,03,22,279,,04,19,319,,16,49,244,,26,75,327,*7A
$GPGSV,3,2,10,27,15,187,,29,23,050,,31,54,050,,32,34,149,28*7F
$GPGSV,3,3,10,193,38,165,31,195,29,145,23*7F
$BDGSV,2,1,06,07,56,223,08,10,45,225,11,25,29,063,,28,,,30*57
$BDGSV,2,2,06,40,67,213,23,41,27,189,33*6A
$GNRMC,055811.000,A,3134.30934,N,12015.97346,E,2.14,340.79,090122,,,A*7E
$GNVTG,340.79,T,,M,2.14,N,3.96,K,A*21
<system_battery_level=-48
$GNZDA,055811.000,09,01,2022,00,00*4A
$GPTXT,01,01,01,ANTENNA OK*35
$GNGGA,055812.000,3134.31015,N,12015.97324,E,1,05,7.4,3.6,M,0.0,M,,*75
$GNGLL,3134.31015,N,12015.97324,E,055812.000,A,A*43
$GPGSA,A,3,193,195,,,,,,,,,,,10.9,7.4,8.1*06
$BDGSA,A,3,10,40,41,,,,,,,,,,10.9,7.4,8.1*11
$GPGSV,3,1,10,03,22,279,,04,19,319,,16,49,244,,26,75,327,*7A
$GPGSV,3,2,10,27,15,187,,29,23,050,,31,54,050,,32,34,149,28*7F
$GPGSV,3,3,10,193,38,165,31,195,29,145,23*7F
$BDGSV,2,1,06,07,56,223,08,10,45,225,11,25,29,063,,28,,,30*57
$BDGSV,2,2,06,40,67,213,23,41,27,189,33*6A
$GNRMC,055812.000,A,3134.31015,N,12015.97324,E,2.32,342.44,090122,,,A*7A
$GNVTG,342.44,T,,M,2.32,N,4.30,K,A*22
$GNZDA,055812.000,09,01,2022,00,00*49
$GPTXT,01,01,01,ANTENNA OK*35
$GNGGA,055813.000,3134.31098,N,12015.97295,E,1,05,7.4,3.3,M,0.0,M,,*7F
$GNGLL,3134.31098,N,12015.97295,E,055813.000,A,A*4C
$GPGSA,A,3,193,195,,,,,,,,,,,10.9,7.4,8.1*06
$BDGSA,A,3,10,40,41,,,,,,,,,,10.9,7.4,8.1*11
$GPGSV,3,1,10,03,22,279,,04,19,319,,16,49,244,,26,75,327,*7A
$GPGSV,3,2,10,27,15,187,,29,23,050,,31,54,050,,32,34,149,28*7F
$GPGSV,3,3,10,193,38,165,31,195,29,145,23*7F
$BDGSV,2,1,06,07,56,223,08,10,45,225,11,25,29,063,,28,,,30*57
$BDGSV,2,2,06,40,67,213,23,41,27,189,33*6A
$GNRMC,055813.000,A,3134.31098,N,12015.97295,E,2.60,340.27,090122,,,A*75
$GNVTG,340.27,T,,M,2.60,N,4.82,K,A*2B
$GNZDA,055813.000,09,01,2022,00,00*48
$GPTXT,01,01,01,ANTENNA OK*35
$GNGGA,055814.000,3134.31185,N,12015.97261,E,1,05,7.4,3.2,M,0.0,M,,*7F
$GNGLL,3134.31185,N,12015.97261,E,055814.000,A,A*4D
$GPGSA,A,3,193,195,,,,,,,,,,,10.9,7.4,8.1*06
$BDGSA,A,3,10,40,41,,,,,,,,,,10.9,7.4,8.1*11
$GPGSV,3,1,10,03,22,279,,04,19,319,,16,49,244,,26,75,327,*7A
$GPGSV,3,2,10,27,15,187,,29,23,050,,31,54,050,,32,34,149,28*7F
$GPGSV,3,3,10,193,38,165,31,195,29,145,23*7F
$BDGSV,2,1,06,07,56,223,08,10,45,225,12,25,29,063,,28,,,30*54
$BDGSV,2,2,06,40,67,213,23,41,27,189,33*6A
$GNRMC,055814.000,A,3134.31185,N,12015.97261,E,2.80,337.42,090122,,,A*79
$GNVTG,337.42,T,,M,2.80,N,5.19,K,A*25
$GNZDA,055814.000,09,01,2022,00,00*4F
$GPTXT,01,01,01,ANTENNA OK*35
$GNGGA,055815.000,3134.31249,N,12015.97229,E,1,06,7.1,3.6,M,0.0,M,,*73
$GNGLL,3134.31249,N,12015.97229,E,055815.000,A,A*43
$GPGSA,A,3,193,195,,,,,,,,,,,10.3,7.1,7.5*02
$BDGSA,A,3,10,28,40,41,,,,,,,,,10.3,7.1,7.5*1F
$GPGSV,3,1,10,03,22,279,,04,19,319,,16,49,244,,26,75,327,*7A
$GPGSV,3,2,10,27,15,187,,29,23,050,,31,54,050,,32,34,149,28*7F
$GPGSV,3,3,10,193,38,165,31,195,29,145,23*7F
$BDGSV,2,1,06,07,56,223,08,10,45,225,12,25,29,063,,28,14,165,30*63
$BDGSV,2,2,06,40,67,213,23,41,27,189,33*6A
$GNRMC,055815.000,A,3134.31249,N,12015.97229,E,2.97,336.30,090122,,,A*75
$GNVTG,336.30,T,,M,2.97,N,5.50,K,A*2A
$GNZDA,055815.000,09,01,2022,00,00*4E
$GPTXT,01,01,01,ANTENNA OK*35
$GNGGA,055816.000,3134.31348,N,12015.97202,E,1,06,7.1,2.7,M,0.0,M,,*79
$GNGLL,3134.31348,N,12015.97202,E,055816.000,A,A*49
$GPGSA,A,3,193,195,,,,,,,,,,,10.3,7.1,7.5*02
$BDGSA,A,3,10,28,40,41,,,,,,,,,10.3,7.1,7.5*1F
$GPGSV,3,1,10,03,22,279,,04,19,319,,16,49,244,,26,75,327,*7A
$GPGSV,3,2,10,27,15,187,,29,23,050,,31,54,050,,32,34,149,28*7F
$GPGSV,3,3,10,193,38,165,31,195,29,145,23*7F
$BDGSV,2,1,06,07,56,223,08,10,45,225,12,25,29,063,,28,14,165,30*63
$BDGSV,2,2,06,40,67,213,23,41,27,189,33*6A
$GNRMC,055816.000,A,3134.31348,N,12015.97202,E,2.92,337.87,090122,,,A*77
$GNVTG,337.87,T,,M,2.92,N,5.41,K,A*22
$GNZDA,055816.000,09,01,2022,00,00*4D
$GPTXT,01,01,01,ANTENNA OK*35
$GNGGA,055817.000,3134.31458,N,12015.97192,E,1,06,7.1,1.3,M,0.0,M,,*73
$GNGLL,3134.31458,N,12015.97192,E,055817.000,A,A*44
$GPGSA,A,3,193,195,,,,,,,,,,,10.3,7.1,7.5*02
$BDGSA,A,3,10,28,40,41,,,,,,,,,10.3,7.1,7.5*1F
$GPGSV,3,1,10,03,22,279,,04,19,319,,16,49,244,,26,75,327,*7A
$GPGSV,3,2,10,27,15,187,,29,23,050,,31,54,050,,32,34,149,28*7F
$GPGSV,3,3,10,193,38,165,31,195,29,145,23*7F
$BDGSV,2,1,06,07,56,223,08,10,45,225,12,25,29,063,,28,14,165,31*62
$BDGSV,2,2,06,40,67,213,23,41,27,189,33*6A
$GNRMC,055817.000,A,3134.31458,N,12015.97192,E,2.62,348.15,090122,,,A*76
$GNVTG,348.15,T,,M,2.62,N,4.84,K,A*26
$GNZDA,055817.000,09,01,2022,00,00*4C
$GPTXT,01,01,01,ANTENNA OK*35
$GNGGA,055818.000,3134.31424,N,12015.97205,E,1,06,7.1,1.6,M,0.0,M,,*7F
$GNGLL,3134.31424,N,12015.97205,E,055818.000,A,A*4D
$GPGSA,A,3,193,195,,,,,,,,,,,10.3,7.1,7.5*02
$BDGSA,A,3,10,28,40,41,,,,,,,,,10.3,7.1,7.5*1F
$GPGSV,3,1,10,03,22,279,,04,19,319,,16,49,244,,26,75,327,*7A
$GPGSV,3,2,10,27,15,187,,29,23,050,,31,54,050,,32,34,149,29*7E
$GPGSV,3,3,10,193,38,165,31,195,29,145,23*7F
$BDGSV,2,1,06,07,56,223,,10,45,225,12,25,29,063,,28,14,165,31*6A
$BDGSV,2,2,06,40,67,213,23,41,27,189,33*6A
$GNRMC,055818.000,A,3134.31424,N,12015.97205,E,0.00,348.15,090122,,,A*79
$GNVTG,348.15,T,,M,0.00,N,0.00,K,A*28
$GNZDA,055818.000,09,01,2022,00,00*43
$GPTXT,01,01,01,ANTENNA OK*35
$GNGGA,055819.000,3134.31750,N,12015.97182,E,1,06,7.1,-3.5,M,0.0,M,,*5E
$GNGLL,3134.31750,N,12015.97182,E,055819.000,A,A*40
$GPGSA,A,3,193,195,,,,,,,,,,,10.3,7.1,7.5*02
$BDGSA,A,3,10,28,40,41,,,,,,,,,10.3,7.1,7.5*1F
$GPGSV,3,1,10,03,22,279,,04,19,319,,16,49,244,,26,75,327,*7A
$GPGSV,3,2,10,27,15,187,,29,23,050,,31,54,050,,32,34,149,29*7E
$GPGSV,3,3,10,193,38,165,31,195,29,145,23*7F
$BDGSV,2,1,06,07,56,223,,10,45,225,12,25,29,063,,28,14,165,31*6A
$BDGSV,2,2,06,40,67,213,23,41,27,189,33*6A
$GNRMC,055819.000,A,3134.31750,N,12015.97182,E,0.00,348.15,090122,,,A*74
$GNVTG,348.15,T,,M,0.00,N,0.00,K,A*28
$GNZDA,055819.000,09,01,2022,00,00*42
$GPTXT,01,01,01,ANTENNA OK*35
$GNGGA,055820.000,3134.31799,N,12015.97185,E,1,06,7.1,-4.4,M,0.0,M,,*50
$GNGLL,3134.31799,N,12015.97185,E,055820.000,A,A*48
$GPGSA,A,3,193,195,,,,,,,,,,,10.3,7.1,7.5*02
$BDGSA,A,3,10,28,40,41,,,,,,,,,10.3,7.1,7.5*1F
$GPGSV,3,1,10,03,22,279,,04,19,319,,16,49,244,,26,75,327,*7A
$GPGSV,3,2,10,27,15,187,,29,23,050,,31,54,050,,32,34,149,29*7E
$GPGSV,3,3,10,193,38,165,31,195,29,145,23*7F
$BDGSV,2,1,06,07,56,223,,10,45,225,12,25,29,063,,28,14,165,31*6A
$BDGSV,2,2,06,40,67,213,24,41,27,189,33*6D
$GNRMC,055820.000,A,3134.31799,N,12015.97185,E,0.00,348.15,090122,,,A*7C
$GNVTG,348.15,T,,M,0.00,N,0.00,K,A*28
$GNZDA,055820.000,09,01,2022,00,00*48
$GPTXT,01,01,01,ANTENNA OK*35
$GNGGA,055821.000,3134.31858,N,12015.97186,E,1,06,7.1,-5.5,M,0.0,M,,*50
$GNGLL,3134.31858,N,12015.97186,E,055821.000,A,A*48
$GPGSA,A,3,193,195,,,,,,,,,,,10.3,7.1,7.5*02
$BDGSA,A,3,10,28,40,41,,,,,,,,,10.3,7.1,7.5*1F
$GPGSV,3,1,10,03,22,279,,04,19,319,,16,49,244,,26,75,327,*7A
$GPGSV,3,2,10,27,15,187,,29,23,050,,31,54,050,,32,34,149,29*7E
$GPGSV,3,3,10,193,38,165,31,195,29,145,23*7F
$BDGSV,2,1,06,07,56,223,,10,45,225,12,25,29,063,,28,14,165,31*6A
$BDGSV,2,2,06,40,67,213,24,41,27,189,33*6D
$GNRMC,055821.000,A,3134.31858,N,12015.97186,E,0.00,348.15,090122,,,A*7C
$GNVTG,348.15,T,,M,0.00,N,0.00,K,A*28
<system_battery_level=-48
$GNZDA,055821.000,09,01,2022,00,00*49
$GPTXT,01,01,01,ANTENNA OK*35
$GNGGA,055822.000,3134.31911,N,12015.97187,E,1,06,7.1,-6.5,M,0.0,M,,*5D
$GNGLL,3134.31911,N,12015.97187,E,055822.000,A,A*46
$GPGSA,A,3,193,195,,,,,,,,,,,10.3,7.1,7.5*02
$BDGSA,A,3,10,28,40,41,,,,,,,,,10.3,7.1,7.5*1F
$GPGSV,3,1,10,03,22,279,,04,19,319,,16,49,244,,26,75,327,*7A
$GPGSV,3,2,10,27,15,187,,29,23,050,,31,54,050,,32,34,149,29*7E
$GPGSV,3,3,10,193,38,165,31,195,29,145,23*7F
$BDGSV,2,1,06,07,56,223,,10,45,225,12,25,29,063,,28,14,165,31*6A
$BDGSV,2,2,06,40,67,213,24,41,27,189,33*6D
$GNRMC,055822.000,A,3134.31911,N,12015.97187,E,0.00,348.15,090122,,,A*72
$GNVTG,348.15,T,,M,0.00,N,0.00,K,A*28
$GNZDA,055822.000,09,01,2022,00,00*4A
$GPTXT,01,01,01,ANTENNA OK*35
$GNGGA,055823.000,3134.32069,N,12015.97173,E,1,06,7.1,-9.0,M,0.0,M,,*58
$GNGLL,3134.32069,N,12015.97173,E,055823.000,A,A*49
$GPGSA,A,3,193,195,,,,,,,,,,,10.3,7.1,7.5*02
$BDGSA,A,3,10,28,40,41,,,,,,,,,10.3,7.1,7.5*1F
$GPGSV,3,1,10,03,22,279,,04,19,319,,16,49,244,,26,75,327,*7A
$GPGSV,3,2,10,27,15,187,,29,23,050,,31,54,050,,32,34,149,29*7E
$GPGSV,3,3,10,193,38,165,31,195,29,145,23*7F
$BDGSV,2,1,06,07,56,223,,10,45,225,12,25,29,063,,28,14,165,31*6A
$BDGSV,2,2,06,40,67,213,24,41,27,189,33*6D
$GNRMC,055823.000,A,3134.32069,N,12015.97173,E,0.00,348.15,090122,,,A*7D
$GNVTG,348.15,T,,M,0.00,N,0.00,K,A*28
$GNZDA,055823.000,09,01,2022,00,00*4B
$GPTXT,01,01,01,ANTENNA OK*35
$GNGGA,055824.000,3134.32082,N,12015.97176,E,1,06,7.1,-9.3,M,0.0,M,,*5C
$GNGLL,3134.32082,N,12015.97176,E,055824.000,A,A*4E
$GPGSA,A,3,193,195,,,,,,,,,,,10.3,7.1,7.5*02
$BDGSA,A,3,10,28,40,41,,,,,,,,,10.3,7.1,7.5*1F
$GPGSV,3,1,10,03,22,279,,04,19,319,,16,49,244,,26,75,327,*7A
$GPGSV,3,2,10,27,15,187,,29,23,050,,31,54,050,,32,34,149,29*7E
$GPGSV,3,3,10,193,38,165,30,195,29,145,23*7E
$BDGSV,2,1,06,07,56,223,,10,45,225,12,25,29,063,,28,14,165,31*6A
$BDGSV,2,2,06,40,67,213,24,41,27,189,32*6C
$GNRMC,055824.000,A,3134.32082,N,12015.97176,E,0.00,348.15,090122,,,A*7A
$GNVTG,348.15,T,,M,0.00,N,0.00,K,A*28
$GNZDA,055824.000,09,01,2022,00,00*4C
$GPTXT,01,01,01,ANTENNA OK*35
$GNGGA,055825.000,3134.32080,N,12015.97178,E,1,07,7.1,-9.5,M,0.0,M,,*56
$GNGLL,3134.32080,N,12015.97178,E,055825.000,A,A*43
$GPGSA,A,3,32,193,195,,,,,,,,,,10.3,7.1,7.5*03
$BDGSA,A,3,10,28,40,41,,,,,,,,,10.3,7.1,7.5*1F
$GPGSV,3,1,10,03,22,279,,04,19,319,,16,49,244,,26,75,327,*7A
$GPGSV,3,2,10,27,15,187,,29,23,050,,31,54,050,,32,33,149,29*79
$GPGSV,3,3,10,193,38,165,30,195,29,145,23*7E
$BDGSV,2,1,06,07,56,223,,10,45,225,12,25,29,063,,28,14,165,31*6A
$BDGSV,2,2,06,40,67,213,24,41,27,189,32*6C
$GNRMC,055825.000,A,3134.32080,N,12015.97178,E,0.00,348.15,090122,,,A*77
$GNVTG,348.15,T,,M,0.00,N,0.00,K,A*28
$GNZDA,055825.000,09,01,2022,00,00*4D
